,City,Latitude,Longitude,Max Temperature (F),Humidity,Cloudiness,Wind Speed
0,hilo,8.329366435845202,-152.4694651921682,82.96880000000006,61,94,1.28
1,batagay,68.71387986965155,134.2029825116511,17.564000000000032,63,100,1.896
2,mys shmidta,89.5528315572117,-177.05094602965778,18.582800000000088,95,100,3.11
3,rikitea,-14.908805324915662,-111.88910611035506,72.49280000000007,70,18,5.87
4,longyearbyen,86.38612368742375,24.921447133559496,25.170800000000032,96,100,3.42
5,bakel,14.542406034684603,-12.876021748165414,76.54280000000007,83,100,3.12
6,makokou,0.4985039460378715,13.777783095474916,64.69879999999999,99,64,0.64
7,kpandae,8.164949046069339,-0.23725030363073074,73.66280000000003,95,100,2.31
8,arraial do cabo,-30.11936138244073,-32.304853651845605,67.32680000000006,90,38,6.5
9,ushuaia,-69.23427382341339,-59.37694153969075,-5.663199999999961,96,47,8.42
10,albany,-58.70662167053645,118.04062929035325,25.098799999999994,79,100,9.24
11,atuona,-10.369072464354886,-118.30116478967686,75.49879999999999,73,62,6.57
12,smithers,58.82347151279271,-128.08329843703416,17.61080000000005,85,100,1.27
13,nador,34.39827059975367,-1.9585542085912664,62.6,48,0,1.0
14,new norfolk,-71.36640645327422,127.99059354126337,-35.59719999999996,96,100,4.9
15,ilulissat,75.68574049349675,-49.896584838723186,-9.74919999999998,98,100,5.33
16,taolanaro,-63.27068822561982,66.73487058844515,-4.43919999999995,94,0,5.39
17,cape town,-39.52717954059419,12.5035639033986,53.28680000000004,69,78,12.92
18,labrea,-6.855248859827313,-64.73929270068191,73.75280000000005,91,17,0.72
19,mataura,-30.470067097271354,-153.80181252769017,60.03680000000004,67,67,7.61
20,grand river south east,-20.061340808511744,74.94578065518706,72.2228,78,31,9.37
21,punta arenas,-76.16430848748152,-86.1642182735652,-21.071199999999962,99,100,5.26
22,winburg,-28.63033375138582,26.810673876156727,46.84280000000007,44,0,2.37
23,tokonou,9.678721008990308,-9.411791401528063,68.91080000000005,97,100,1.78
24,buala,-0.9055841332763634,161.82610854037614,86.1908,67,70,4.43
25,mocuba,-20.28306134119643,40.02270340162099,77.24480000000004,83,0,7.2
26,vizinga,60.85063520179841,49.425135396886304,43.11680000000008,92,100,5.39
27,olafsvik,67.93210814111731,-30.484081368554087,39.58880000000001,61,100,3.82
28,kapaa,34.74673237907743,-154.89106489539614,70.98080000000002,73,37,5.57
29,banjar,-12.083325888082157,106.0962180037692,75.9308,83,77,6.18
30,sao paulo de olivenca,-3.645540771356579,-69.16504324657008,73.55480000000003,97,100,1.09
31,sao filipe,7.406018802365608,-28.283139742279275,80.7728,80,97,5.97
32,nadym,64.47628985310061,71.9790812375272,34.602800000000045,72,99,3.49
33,kudahuvadhoo,3.56926154221739,63.36131856151576,82.98680000000004,70,64,2.48
34,persianovskiy,47.56943281198275,39.39064262877676,48.2,76,20,6.0
35,rocha,-38.693101481368856,-51.887256709422076,55.806799999999996,73,1,12.29
36,majene,-2.475584570106207,118.0932021416013,82.39280000000007,75,18,2.7
37,kodiak,53.454717330351684,-145.827259796485,49.74079999999999,69,0,4.73
38,pontianak,-1.69873640007269,109.49842463423539,79.45880000000008,78,96,2.95
39,mar del plata,-55.941077246040095,-39.906984891098006,31.794800000000045,98,100,8.44
40,kamenskoye,65.00725001695912,169.57641477082376,20.43680000000004,90,75,4.5
41,ponta do sol,20.5613320527806,-37.40963008116444,78.23480000000006,71,64,6.85
42,port alfred,-53.41662637918034,32.37166920965305,33.25280000000005,91,100,14.43
43,lebu,-37.79425819818281,-78.13069390764316,53.070800000000034,77,100,1.65
44,faanui,-11.553845274992824,-154.25555122359935,81.42080000000003,75,34,4.9
45,hermanus,-45.01979132751724,16.268886772393813,46.17680000000006,67,20,13.2
46,tigil,57.83409325869826,157.20047547206457,41.604800000000026,75,89,6.32
47,sur,21.617535526221914,60.06325425863682,78.9728,79,0,0.39
48,bredasdorp,-86.41567938945015,15.072510429826792,-45.31719999999996,97,100,5.08
49,khatanga,78.3032370881186,98.63467189770898,27.0068,80,78,5.21
50,zalantun,47.53404654295255,121.19459753358018,42.66680000000008,41,0,6.27
51,broken hill,-29.183611121928557,144.55788475297516,73.32080000000003,22,0,10.06
52,kamenka,70.70632587721761,45.74268588741813,37.03280000000009,79,92,7.27
53,lososina,48.82745384094298,140.52654437131508,52.71080000000005,81,100,7.1
54,bluff,-71.93986255171208,162.16732876527806,-13.961199999999934,64,0,4.64
55,isangel,-18.53332588595697,170.95244283630848,75.62480000000008,86,98,6.87
56,thompson,56.98303977094838,-91.04575227875134,38.022800000000004,76,86,6.51
57,vaini,-26.726839689500437,-170.85819426963272,64.41080000000005,68,100,7.69
58,bethel,50.58095669783967,-163.2838811798011,52.89079999999999,83,100,5.86
59,hobart,-64.63343139782982,150.775417181019,28.248799999999996,95,100,7.04
60,saskylakh,73.76551826285524,115.12795645919613,31.668800000000054,76,100,7.27
61,tambopata,-13.043395261584593,-69.98965903706795,64.89680000000001,98,42,0.24
62,iralaya,15.672243245849572,-83.05015437721045,84.89480000000005,77,79,6.67
63,jalu,25.80285179724936,24.47780531960254,69.6488,38,0,2.93
64,tommot,60.286280257416024,126.10254570279699,32.10080000000007,74,100,3.03
65,victoria,-5.580949637732402,55.62767137657957,80.37680000000006,83,77,5.41
66,qaanaaq,84.23662640190162,-82.41028287509866,9.402800000000049,80,0,2.71
67,necochea,-44.78300726579632,-55.81873254744036,45.4568,74,0,8.96
68,busselton,-46.146200702425915,86.18873829118064,42.72080000000003,84,100,7.45
69,hithadhoo,-16.074703527538958,84.91838995535863,76.88480000000007,78,18,6.47
70,mayumba,-4.831647972029145,9.318747140758063,75.55280000000005,88,100,5.98
71,riedlingen,48.271960871339616,9.545031702613386,51.998000000000026,87,75,3.1
72,ahuimanu,29.53530128590299,-154.77382635344856,76.09280000000007,66,100,4.21
73,simpang,-1.3416188035273109,103.90810361776465,86.87480000000008,58,77,1.98
74,norman wells,67.65591537864404,-127.42295445771163,26.358800000000077,93,100,8.07
75,basco,19.847076698205328,123.70756440947804,81.76280000000003,78,6,9.27
76,abu jubayhah,11.412950067976013,31.20060242228658,71.08880000000002,79,37,1.38
77,kavieng,2.059914706705001,150.07745099525778,84.57080000000003,73,76,3.62
78,hofn,62.565746683942706,-11.857214846015836,50.26280000000003,91,100,12.7
79,iqaluit,63.31132153571636,-76.92671429093292,35.37680000000006,97,100,5.38
80,tuktoyaktuk,83.4275233286445,-134.99651215614384,10.48280000000009,95,0,5.46
81,khilok,51.03589384635711,110.95434021241573,49.6148,52,13,6.17
82,yalvac,38.32927250803192,31.260306070683157,50.352800000000045,89,17,3.03
83,omsukchan,64.40368310296358,156.0546657793547,14.424800000000083,85,41,1.49
84,pimentel,-12.554560802050105,-89.06681587873061,62.98880000000001,75,43,5.37
85,ponta delgada,29.709226357806784,-27.33053663594248,75.51680000000007,73,44,6.82
86,nikolskoye,36.714429474802614,179.41528659228482,64.82480000000008,79,67,8.81
87,lerwick,60.246322073230914,-0.07800246622758777,50.0,87,96,6.7
88,fortuna,39.316479061381244,-133.24391502719237,64.12280000000001,70,100,3.69
89,kupang,-14.28620991810476,124.64020569205564,80.6648,71,0,2.02
90,salalah,16.323432522970634,51.53171755098015,68.76680000000007,97,44,3.49
91,te anau,-39.41950665866461,163.16067876214714,57.768800000000056,96,100,7.58
92,lavrentiya,73.34034841089965,-169.82927979508554,30.39079999999999,74,95,2.93
93,chuy,-67.02076056018532,-17.913625946334378,2.0228000000000073,87,0,8.18
94,kirakira,-13.294811911535064,161.27097716682795,78.34280000000007,82,33,8.86
95,chagda,59.32923712208782,131.5823661183892,36.312800000000024,72,70,2.34
96,avarua,-48.03274308635807,-165.7986498248241,48.85880000000007,85,100,8.5
97,moroni,-12.454208565374046,42.85843414970438,78.88280000000009,77,18,7.77
98,boa vista,1.8583685539127686,-61.0309214783172,73.24879999999999,96,33,0.77
99,upernavik,88.86568100064028,-55.51344942489463,15.018800000000056,91,100,3.59
100,kavaratti,11.430934339176929,68.04642111881839,83.43680000000003,70,21,3.32
101,yellowknife,83.23837831163544,-104.73829342654206,17.268800000000056,90,100,7.23
102,zharkovskiy,56.03759085210686,32.41863682402402,29.2568,93,85,2.75
103,znamenskoye,58.003613121528474,73.42821280234259,45.36680000000008,81,0,0.85
104,rabo de peixe,45.914331017008294,-21.246033387776407,60.360800000000054,70,63,12.29
105,saint-louis,17.17986931753002,-17.428194281393672,78.77480000000008,87,6,4.33
106,maputo,-26.265306596662285,33.04522239205852,73.4,73,40,3.1
107,san cristobal,-4.450867766741965,-88.83425691679736,66.06680000000009,84,100,6.49
108,kaeo,-27.675594726376175,173.649840031223,65.97680000000005,76,0,7.97
109,dabola,10.34864669365841,-11.161878340971327,66.78680000000004,99,100,1.09
110,shingu,31.537890655203185,136.9971052960979,79.2068,74,11,6.55
111,birao,10.8342056742257,23.58570931662399,69.73880000000001,93,96,1.73
112,itarema,6.573655885073961,-38.953406675487145,81.67280000000001,73,2,2.11
113,amderma,81.48415880853969,64.11867278222664,27.36680000000008,88,32,6.25
114,kununurra,-19.040660838179207,129.13473975797115,98.53880000000001,7,0,10.37
115,saint-pierre,37.7470394754494,-53.190223110518914,67.30880000000008,60,51,4.79
116,marcona,-24.469590478213448,-84.23208821838166,61.314800000000005,87,0,6.58
117,airai,5.3192844556738095,136.93379934766733,83.85080000000008,77,54,7.02
118,castro,-48.64941592652821,-88.31847373597526,42.522800000000004,93,90,5.92
119,kaitangata,-60.590244274694726,175.0822147457846,35.70080000000007,82,0,9.18
120,chalon-sur-saone,46.898074694757014,5.004062958771357,50.0,100,0,1.0
121,georgetown,-3.2174412403172425,-16.00766948415611,76.38080000000001,76,100,7.15
122,pisco,-24.266851971236377,-94.50309848721483,64.6808,79,52,5.95
123,east london,-64.52663488569847,45.90772918739901,18.94280000000007,95,83,3.4
124,clarence town,22.69049808991568,-73.46014290629283,82.71680000000008,83,100,6.37
125,belushya guba,81.9244166937869,58.56919704956164,29.40080000000007,86,89,10.61
126,kieta,-3.6828059806835114,157.40308716097985,85.56080000000006,71,29,5.17
127,north bend,43.29394256660791,-129.87231275809435,62.484800000000064,90,96,6.84
128,bandarbeyla,8.291814444930637,54.8086788948813,81.20480000000002,75,66,2.74
129,samarai,-10.723418379155802,151.09079483570724,76.70480000000002,76,60,6.04
130,esperance,-44.26603052319612,127.08606334790346,49.056799999999996,82,96,10.0
131,alofi,-20.157802604417427,-167.4699053540984,73.14079999999998,73,45,9.37
132,grand gaube,-13.536976581759788,63.96386303716062,77.51480000000001,83,100,11.95
133,panna,24.728853525523192,80.27220688845739,79.11680000000008,59,0,1.18
134,la rioja,-30.010658496599085,-66.7968010676866,61.08080000000001,56,0,1.54
135,hambantota,1.1332019911107807,84.46251685116778,79.85480000000003,75,99,3.53
136,dingle,48.30273231264002,-20.472009724456456,56.83280000000009,65,32,15.3
137,puerto ayora,3.6367525789859343,-92.75976855012455,75.24680000000002,86,96,7.52
138,klaksvik,81.31155652625029,-5.436838269087076,23.04680000000002,91,100,3.02
139,dikson,86.03999196692973,78.18585040634127,34.24280000000007,96,100,8.77
140,port alberni,49.3134685237018,-125.08263652441295,53.00600000000003,71,75,5.1
141,guerrero negro,13.183502888491546,-129.4029201557943,80.84480000000005,82,0,5.44
142,yumen,35.86718777661096,94.43815601480787,35.124800000000086,74,100,1.57
143,rio brilhante,-21.738814536965904,-53.888566173786685,67.41680000000008,88,31,3.22
144,saint-philippe,-74.91483118232532,73.89479443209271,-30.251199999999947,63,0,8.11
145,churachandpur,24.06413988105183,93.39945354010302,70.15280000000004,96,99,0.14
146,calama,-22.875666877159873,-67.20597931834813,29.328800000000037,25,0,2.19
147,andria,41.148712985583074,16.281732566925427,57.2,87,0,3.1
148,yanam,15.090839865279477,83.77363252431547,83.38280000000009,65,66,2.26
149,nanortalik,50.384794474863156,-36.31760631760707,52.062800000000024,76,100,11.65
150,jamestown,-16.994257927522455,1.0254126363943783,63.52880000000003,84,100,10.36
151,charters towers,-22.27453735383675,145.49088905789858,99.31280000000002,11,0,4.4
152,swan hill,-33.52459949940038,144.0400888241839,64.84280000000007,29,0,10.18
153,mutsamudu,-11.013547143896858,45.192925113332876,78.84680000000002,78,18,11.16
154,hamilton,46.0081542345261,-114.80594557732124,51.8,75,1,2.6
155,port hardy,48.360955256239265,-132.98340105448528,54.67280000000001,64,15,10.25
156,aklavik,67.59897966775227,-140.93447207585706,22.29079999999999,67,0,0.79
157,umzimvubu,-42.88427618412582,38.3788940539626,51.4148,99,100,10.21
158,bocanda,6.8982204583945474,-4.457604821997961,70.04480000000004,99,87,1.44
159,mehamn,81.36039926921333,29.465167082759137,29.292800000000067,86,100,3.16
160,roald,68.37688115940418,2.9213043368297633,45.40280000000005,76,100,10.33
161,ugoofaaru,5.065652528680616,67.62485947364311,80.26880000000006,74,97,2.03
162,vanersborg,58.83174971085111,12.30162137999082,37.4,93,100,2.6
163,maniitsoq,61.72047092053532,-56.8605668085178,42.21680000000008,88,100,10.28
164,shalazhi,43.10439073500311,45.27377365447978,53.6,76,90,5.0
165,high level,60.33448915120695,-118.8139688890131,26.5568,91,75,4.75
166,sinjar,36.35713823246331,41.89562513238229,66.0488,45,0,3.42
167,saldanha,-37.18893473478252,7.8439091148573254,55.05080000000007,69,100,13.35
168,namibe,-15.76995539898158,9.075273653646974,64.12280000000001,81,45,9.02
169,yatou,35.39264377017898,124.6336823039403,63.294800000000045,70,35,9.94
170,torbay,34.51787788857452,-50.463636279324646,68.9648,69,39,11.38
171,tiksi,79.62871854509515,123.90441371580573,26.1068,88,100,6.32
172,matanzas,23.070349517473574,-81.51675962351479,73.4,100,40,2.1
173,lorengau,1.6286472219897234,144.28467848506375,84.8228,71,26,4.12
174,msanga,-6.398229102408578,36.058699914026704,64.4,100,20,3.6
175,ewa beach,18.337540717336665,-159.05655201099788,80.68280000000009,63,1,3.1
176,ozgon,40.99717619670204,72.96703295595893,69.00800000000001,59,52,2.0
177,veraval,16.633351519617605,66.86780031318554,81.72680000000005,74,0,5.37
178,kabansk,52.74218521163243,106.78065073211843,45.07880000000004,80,99,5.55
179,carnarvon,-22.82127297169835,100.60952650030873,67.41680000000008,74,100,5.59
180,tumannyy,69.66768674176168,35.47679231881639,38.61680000000008,72,82,6.27
181,calabozo,7.693811580835373,-66.49393040928265,78.0728,84,100,1.58
182,chulman,56.775652686296866,125.24216826661916,27.258800000000075,84,100,2.78
183,chardara,41.76827099466894,67.87437322514924,63.63680000000004,44,0,4.93
184,saint george,31.920279357096064,-59.35528409541111,74.72480000000009,67,100,9.27
185,ketchikan,59.25870826802182,-130.04842857008947,17.52080000000003,73,57,2.42
186,chirongui,-13.714913853990993,45.60260403834778,79.4408,72,1,1.71
187,lompoc,26.816460069200616,-129.81022753553506,68.94680000000002,72,77,3.55
188,illoqqortoormiut,76.10964745442723,-20.07870978060157,24.93680000000004,59,100,5.15
189,kahului,26.267435498882236,-154.88042635617256,77.33480000000006,56,71,1.51
190,port elizabeth,-62.71618748471395,33.35962531428575,30.282800000000087,90,100,11.87
191,zhaotong,27.125815522538062,103.81476172850887,63.54680000000002,77,94,2.33
192,butaritari,14.245748746106628,166.02710145601452,83.4908,78,2,6.72
193,cap malheureux,-16.116756535637734,58.924757894297414,76.48880000000001,76,63,11.04
194,vardo,70.62971047263832,31.089950042200144,39.96680000000008,70,88,7.47
195,altamira,-4.173891361837178,-52.75839182025483,72.2408,96,100,0.98
196,imeni poliny osipenko,52.286682773880415,136.29577285629858,45.99680000000002,78,100,1.84
197,sisimiut,66.64915579652791,-54.04385628411595,37.84280000000007,58,17,4.61
198,meulaboh,0.643219490689745,94.0929455355178,80.39480000000005,79,100,7.78
199,guangyuan,33.241678133045596,105.41946598085434,66.99199999999999,74,87,2.5
200,bathsheba,16.763830708686086,-48.15449277735553,80.61080000000005,73,92,6.25
201,fort nelson,61.71871581320829,-123.15767390990416,25.548799999999993,92,99,1.44
202,souillac,-48.05903080564373,70.76261225188097,36.61880000000006,77,100,14.09
203,cabo san lucas,19.580707065904477,-115.67257873974117,76.14680000000001,79,97,3.75
204,santiago del estero,-27.886523455432254,-64.5665607682868,71.53880000000001,41,0,3.35
205,puerto colombia,11.911377938176628,-75.89999253329702,84.98480000000006,76,7,7.73
206,meyungs,14.730986509022188,133.87635571859505,83.34680000000002,75,62,4.36
207,issia,6.743004238466881,-6.8723449059304755,70.51280000000003,99,92,1.99
208,otautau,-46.095833480313644,168.0775284155253,53.00600000000003,92,100,2.68
209,saleaula,1.3897658851007293,-167.39794418521015,82.69879999999999,74,0,6.04
210,labuhan,-12.600226614516686,99.9103954511437,76.18280000000009,74,65,7.79
211,pasni,22.38160006965468,63.57874798232416,83.27480000000008,69,3,3.85
212,ostrovnoy,71.24113274498015,43.530385650246046,37.21280000000003,80,96,7.64
213,rathdrum,47.90308114467567,-117.04392899818389,64.4,54,20,7.7
214,kruisfontein,-55.644429732495354,26.037920471941533,28.680800000000012,80,100,9.57
215,hervey bay,-21.994399522469664,156.70140568313474,71.16080000000005,68,0,3.49
216,domoni,-9.613222079516959,46.49651409468348,78.91880000000006,81,48,11.69
217,lagoa,44.86991500737446,-32.07600449369343,59.478800000000035,68,0,8.25
218,houma,27.764902836776628,-90.61067926897515,86.0,66,20,7.27
219,vaitupu,-3.4068385000723254,-178.5700408452092,83.27480000000008,72,64,3.98
220,kalutara,6.562696112149823,80.07197583367446,81.47480000000009,77,100,1.07
221,kandrian,-7.7536473297277695,151.73758741401446,79.81880000000005,82,100,9.51
222,japura,-1.9484238274912684,-69.53214337690143,73.93280000000009,97,100,1.64
223,tres picos,14.9195250954197,-94.03284029336965,84.76880000000006,76,98,8.67
224,khani,58.10658288684513,121.21140765366738,35.628800000000034,71,100,5.32
225,brae,67.00479201289266,0.11118232196724875,46.518800000000056,82,100,14.1
226,yulara,-24.97501940707322,126.87957230602359,87.23480000000006,18,0,8.87
227,flin flon,55.198578458421196,-102.2037557385041,49.29079999999999,68,100,3.69
228,qandahar,32.06037918008455,65.92492162962512,66.31880000000005,28,0,2.13
229,toliary,-26.000280559262272,40.157635554712385,72.99680000000002,83,0,3.77
230,emba,48.42744236225579,59.16031867405667,55.71680000000008,43,51,1.89
231,mahebourg,-39.598338586258414,76.21891922908094,50.37080000000003,74,100,9.95
232,kawalu,-16.463362043880508,106.63465209594705,73.4648,85,0,7.52
233,piltene,57.07376633066332,21.57813373113089,41.0,93,0,1.5
234,burica,7.6075864407779505,-83.46747166645358,78.73880000000001,87,88,7.01
235,barrow,83.25321929185878,-164.90267608856067,17.970800000000033,93,100,5.85
236,cervo,45.54039327425545,-7.250934798959008,64.39280000000007,97,99,7.19
237,chokurdakh,86.38401612823475,147.4617157915,23.352800000000048,94,100,7.85
238,santa cruz de la palma,29.383923682507827,-17.23309146505332,70.26080000000005,81,56,7.02
239,mangai,-2.983707443755648,19.379722146454526,69.6488,99,100,1.25
240,katsuura,29.21847531904291,146.87926465564522,80.23280000000008,80,44,4.78
241,mizdah,30.385983263589452,13.78596219287067,62.70080000000007,80,100,4.04
242,juruti,-2.145973325444629,-55.788873754075496,80.10679999999999,77,31,0.32
243,lardos,35.886985118737854,27.882383438287576,71.00600000000003,88,40,1.0
244,asau,-14.458579739112992,175.8536437207303,81.29480000000004,78,100,7.6
245,feijo,-7.935773873065912,-70.39145248750566,69.1808,93,66,1.2
246,san quintin,21.04890410916022,-128.47053565512084,73.86080000000005,88,0,6.57
247,beringovskiy,58.636922060301316,175.39568247791846,40.63280000000009,77,100,18.28
248,carutapera,5.860613498679072,-42.71770435268212,81.36680000000008,78,9,3.76
249,ribeira grande,31.348643796422962,-44.28952884043147,72.49280000000007,73,100,6.12
250,ahipara,-35.69366951019844,172.7276765645655,59.98280000000009,84,68,4.15
251,orlik,52.92409357307986,100.86292654984197,42.93680000000004,61,0,2.62
252,angoram,-4.152850014507862,144.76130502006498,87.93680000000003,62,58,3.68
253,weligama,1.4531745689907893,78.46967042006037,81.94280000000006,71,16,2.51
254,severo-kurilsk,30.434912034625583,164.9889948629397,75.06680000000009,78,0,5.63
255,namatanai,1.7111219227365808,156.90378261760264,84.78680000000004,68,5,4.03
256,markala,13.816384670852528,-6.2521914061096595,76.25480000000002,75,0,3.85
257,barentsburg,89.74985847738154,6.3072997282556,18.582800000000088,95,100,3.11
258,pangnirtung,65.10269144374948,-60.47052897789048,39.42680000000006,83,100,4.23
259,ridgecrest,37.09179520252299,-117.49058024494033,65.68880000000001,15,0,1.93
260,zhangye,37.7051010293583,100.45541074468326,40.272800000000004,66,100,0.75
261,cachoeira do sul,-30.11863176491429,-52.65489385982853,56.76080000000005,88,0,0.57
262,saint anthony,56.3851018252052,-53.063131558358236,46.59079999999999,79,29,10.37
263,saint-augustin,54.53848718428168,-60.067156682823935,44.268800000000056,78,45,3.9
264,beausejour,49.76128394891478,-96.49240273099704,57.00200000000008,58,20,7.2
265,san luis,28.902648778284984,-114.129112374692,72.67280000000001,60,0,2.07
266,mount isa,-25.877226338110034,140.48422201494276,80.12480000000008,19,0,9.1
267,necocli,8.415473584186785,-76.69516350659171,78.8,88,40,1.68
268,darhan,45.93939964711629,109.5670274758487,53.37680000000006,36,0,5.92
269,attawapiskat,63.303983595632474,-80.4129811195925,35.59280000000007,97,100,6.73
270,dicabisagan,18.164546425272036,126.87580417841468,82.42880000000004,80,68,7.23
271,geraldton,-32.11800212472536,97.90127858892174,56.202800000000046,62,50,1.47
272,maceio,-16.857695197934802,-28.02910985010743,73.35679999999999,73,0,8.21
273,tasiilaq,65.45217593170736,-39.79841293071132,30.678800000000034,46,0,10.16
274,talnakh,75.02880404954621,88.75059402559242,13.74079999999999,85,0,1.08
275,clyde river,72.08183676447902,-84.73172787489509,10.93280000000009,80,90,1.69
276,ust-maya,57.526416183133506,134.37991174912116,34.00880000000008,77,32,2.15
277,kapit,-0.2289104589429911,113.43505822148722,86.71280000000003,54,0,1.28
278,naron,46.56371650600849,-8.786907689226638,62.32280000000001,80,100,6.9
279,hovd,42.49603263071319,104.84476797747112,51.46880000000006,29,5,4.51
280,beloha,-29.646499382621684,43.2466921162283,72.36680000000008,86,0,10.4
281,kontagora,10.31900367141641,5.168877734185486,72.65480000000002,95,100,1.06
282,wewak,-2.690873890392581,144.95224767045585,84.01280000000003,76,27,6.34
283,wahran,34.31116108005074,-1.327115355425434,61.0988,43,100,1.34
284,bolungarvik,65.9819555925512,-22.280412085153728,45.06080000000005,91,100,5.16
285,nikki,10.150008595697741,3.4933055336636016,71.14280000000007,95,100,1.93
286,marsaxlokk,35.27848897343998,14.824159283251674,69.05480000000003,64,30,3.1
287,russell,-34.1079409737498,174.71066979074163,61.602800000000045,68,0,2.27
288,collingwood,44.49154615501823,-80.20935446374044,50.0,93,1,2.1
289,pevek,89.77942118276565,173.30731234403066,18.582800000000088,95,100,3.07
290,sinnamary,18.420467097042533,-43.7171340825351,79.51280000000003,73,69,3.99
291,yima,34.984853670647595,111.97804522053542,65.65280000000004,34,26,3.27
292,ambilobe,-13.247039827373627,49.890049445054984,65.56280000000002,81,16,5.34
293,baripada,21.8168160087358,86.74517917588418,79.67480000000009,74,37,1.28
294,srednekolymsk,74.39619606180997,154.1125735827443,30.2648,88,99,3.87
295,anshun,25.858198060947956,105.7635944884833,67.48880000000001,82,100,1.53
296,snyder,33.08079363205984,-101.1075679411022,60.8,38,1,2.6
297,dargaville,-36.136770829245535,173.80488771904334,59.53280000000009,84,4,3.66
298,lensk,61.20838993518575,115.15285489509535,23.5148,82,100,4.64
299,fernandez,22.020463464249318,-99.95134828054957,65.4728,85,0,2.87
300,bafra,41.952262289080835,36.31571799883733,66.39079999999998,74,99,2.97
301,hasaki,26.062063538806555,153.8191269353971,83.1488,82,66,6.23
302,qasigiannguit,67.21140581404802,-49.22019833369944,21.2,79,0,3.1
303,provideniya,44.12168092921286,-178.3047635641552,52.728800000000035,91,98,10.53
304,gravelbourg,48.66574846722648,-106.89689961341195,57.2,56,1,2.1
305,rafaela,-30.62420931518109,-60.974912035443026,64.21280000000003,66,6,3.57
306,cherskiy,76.03969201956713,161.62338566031502,25.29680000000002,82,100,2.4
307,evensk,64.5201821067231,161.74186619194296,10.08680000000004,92,26,2.89
308,las palmas,28.611835796093814,-15.241426648606705,70.60280000000004,87,83,5.75
309,apatity,67.07024264344088,33.27438786373665,30.894800000000043,87,95,3.5
310,hoquiam,47.35508848620586,-124.7223576385332,55.99400000000007,87,90,8.97
311,krasnoselkup,63.48512222935932,84.70064481015118,33.522800000000004,80,71,2.79
312,halalo,-14.905814788205447,-176.24305723512248,79.60280000000004,80,6,8.71
313,okha,56.083567917801446,146.8886179442236,45.92480000000008,79,100,3.58
314,jardim,2.7196554534764346,-34.32272765250781,78.36080000000005,78,37,5.41
315,awjilah,25.622985685337767,19.963120455758855,72.13280000000009,33,0,6.03
316,wattegama,5.087809419219639,84.1727424466589,82.21280000000003,75,98,5.65
317,bengkulu,-3.7710969528938563,100.36280563720095,76.66880000000006,89,100,5.42
318,placido de castro,-10.62206684348972,-66.89349589057123,68.56880000000005,89,6,1.67
319,rafai,6.213076289342155,24.27831987437645,68.58680000000004,99,100,1.94
320,riverton,-46.94845711332171,167.727453816221,49.83080000000001,81,100,1.48
321,vostok,52.38601692267551,147.3932018338566,47.72480000000009,94,98,9.68
322,batemans bay,-40.82403671510056,155.42858555895742,55.59079999999999,76,55,3.61
323,panchagarh,26.174226623022236,88.59181269847835,75.2,83,75,2.6
324,aksarka,69.92543781405516,68.88377217026525,34.67480000000008,95,100,3.5
325,ribeira brava,17.933903008644393,-23.793297302351817,75.55280000000005,87,90,5.08
326,pichayevo,53.1024371804742,42.309063367199116,32.69480000000004,81,35,3.18
327,kazalinsk,45.932704862110654,60.786016880864366,67.92080000000003,54,0,1.72
328,la ronge,64.20795827221716,-104.7480055914103,26.808800000000076,95,100,9.5
329,eureka,41.40500100769975,-124.97295637875723,59.478800000000035,87,41,11.34
330,okhotsk,61.384049713320024,144.53825377805242,16.206799999999998,65,100,2.41
331,kishi,9.687070752174975,4.067833627547827,70.76480000000001,93,70,0.67
332,satitoa,-14.629871044063648,-168.29545966347783,78.55880000000008,79,100,9.45
333,demba,-5.539899655557406,22.57862281869498,67.20080000000007,99,100,1.18
334,ixtapa,2.603026811333166,-109.3013693218006,73.59079999999999,79,100,7.85
335,rio gallegos,-48.99170739065648,-69.56130517143495,42.25280000000005,41,0,5.39
336,terrace,55.12708447991142,-128.37571612606217,28.248799999999996,92,100,1.77
337,ancud,-40.611377128277134,-78.98923004250294,50.83880000000001,88,94,2.64
338,khudumelapye,-23.894860538996298,24.635587451538527,59.28080000000001,21,0,2.93
339,dori,14.084529587641896,0.17494531857312268,89.48480000000006,41,100,6.04
340,belaya gora,69.51869565321786,145.77636956825808,14.514800000000001,88,0,1.34
341,udachnyy,67.37239796853066,111.93524981436155,16.674800000000083,92,100,9.36
342,luderitz,-37.60929452446214,-2.0309080872286813,51.81080000000005,65,76,14.46
343,taoudenni,24.619240415222137,-7.262485776723423,79.71080000000005,12,0,5.86
344,yei,3.847417625124706,30.674914930564228,64.95080000000007,94,89,0.78
345,louisbourg,39.89816558741839,-58.37930675560831,68.0648,64,33,6.06
346,dhangadhi,28.69241649580414,80.68501268904095,74.90480000000002,71,0,0.67
347,reidsville,36.38665854873405,-79.52242214495045,71.99600000000005,77,75,0.55
348,bangassou,5.805490747579611,22.83575483143798,66.78680000000004,98,100,0.85
349,aras,60.846529002126516,4.753801247559068,48.2,87,100,22.1
350,sobolevo,54.11512849634747,156.0219729544541,47.688800000000015,86,100,8.79
351,bakchar,57.15097217295579,82.5667693307513,49.77680000000006,90,100,0.77
352,bossier city,31.95397950621232,-93.64963783194199,64.4,100,40,2.54
353,honningsvag,80.09169138737474,25.972545861023946,29.61680000000008,81,100,0.45
354,sentyabrskiy,27.874717121784585,163.15683466337032,78.21680000000008,85,24,8.71
355,loreto,26.067466455332948,-111.06496126952321,84.1568,39,0,0.94
356,ust-omchug,60.50663152159419,148.53859594965854,21.57080000000003,60,10,2.37
357,iracoubo,11.553847081032629,-51.029781739304696,81.4568,75,85,8.6
358,kurdzhinovo,43.64501449055962,40.76804655884848,59.0,67,90,1.0
359,mutoko,-16.641215049465075,32.625099649889535,70.83680000000004,65,0,2.06
360,kargasok,60.68855297195927,81.52618415592747,38.63480000000006,75,89,1.87
361,nguiu,-12.142767494508334,130.0395543076097,80.97080000000003,68,0,2.66
362,port keats,-13.218784638451638,127.54107924410249,80.68280000000009,71,0,2.64
363,harper,1.0639166264905384,-10.107698206314922,75.35480000000003,80,96,5.37
364,san patricio,7.912516173770044,-116.18461920789152,78.50480000000002,84,20,6.95
365,broome,-20.467701456662724,123.94217650144486,102.10280000000004,8,0,8.29
366,reconquista,-28.707230811619674,-61.87015626721917,66.40880000000007,57,0,3.73
367,lincoln,53.25978237757462,-0.5320259270675081,53.6,93,0,3.6
368,alyangula,-17.123112709421775,137.37217891606616,99.16880000000006,16,0,6.17
369,inta,65.62320259920713,59.32976766748638,31.812800000000028,91,37,3.43
370,valparaiso,-32.32983155145044,-73.33616254304088,55.57280000000001,74,67,12.57
371,areia branca,-3.72255294150105,-36.59017608498209,78.27080000000004,78,0,11.68
372,khandyga,65.2751704240545,137.0250985178588,12.768800000000056,64,59,2.39
373,oktyabrskoye,62.016901044332,68.1324460700805,45.54680000000002,96,100,3.37
374,monforte de lemos,42.79657666898589,-7.14482354152932,62.00600000000003,100,62,1.34
375,tabiauea,-1.847330382371311,169.2230346890454,86.13680000000004,60,100,2.77
376,nizhneyansk,82.00437062326003,132.9390477267607,24.720800000000033,90,100,8.28
377,bayog,7.8957569665014375,122.94897592835628,85.97480000000009,67,55,2.02
378,cidreira,-46.260657427436854,-32.706842396522006,46.62680000000006,80,100,14.85
379,chicama,-13.697629963837016,-87.96447870996448,62.46680000000008,72,100,5.28
380,neuquen,-39.78594034454774,-68.1519743846203,43.044800000000045,56,0,7.86
381,college,74.25882595175429,-146.16934647467968,28.662800000000026,81,100,12.38
382,oshikango,-17.476716108824093,15.569799941187398,71.62880000000004,14,0,4.58
383,ust-kamchatsk,57.560029114359395,161.83681992713548,41.19079999999999,53,0,9.26
384,taltal,-25.805289327425072,-74.66346929234159,58.09280000000007,87,0,10.08
385,olinda,-8.920666056467198,-29.94288025130021,77.08280000000009,79,37,9.0
386,sao joao da barra,-30.14661472586782,-26.617567366818747,66.57080000000003,84,74,5.25
387,tsihombe,-54.10749488391676,48.48827364983086,31.812800000000028,94,100,4.03
388,leningradskiy,67.7376547156507,178.09588377635487,24.702800000000046,96,100,4.73
389,tura,65.70299635162945,97.0159148148461,9.654800000000023,90,0,2.46
390,zliv,49.07141462971427,14.390974830761706,44.00600000000003,88,100,1.34
391,marsa matruh,32.368338839942,28.627200621045944,76.20080000000007,71,100,5.5
392,mandera,2.5506310040943703,41.48616162448687,75.49879999999999,61,21,4.8
393,korla,36.58113344076037,87.79590355503859,18.978800000000035,85,99,0.6
394,spearfish,43.68706197283973,-104.22229987792886,55.4,24,1,3.6
395,lata,-9.746848980189682,164.03955760497888,82.96880000000006,75,100,4.2
396,atambua,-8.302493544617391,128.3922216410615,79.24280000000007,74,94,5.17
397,sitka,53.769011232302034,-143.17637211688364,51.144800000000046,63,0,7.07
398,dabat,13.13974409247973,37.88703764548234,62.82680000000006,73,0,1.17
399,hermiston,45.32741743838156,-119.84067376083449,66.99199999999999,64,93,1.34
400,itoman,22.712459271689355,128.38212077260528,81.88880000000002,78,0,7.61
401,raahe,64.82866964454749,24.736230323749936,32.0,90,0,3.1
402,henties bay,-21.154932759069695,11.195455938596439,61.062800000000024,83,0,11.38
403,benjamin aceval,-24.868929460349065,-58.12075628977166,66.12080000000003,68,100,1.89
404,shimoda,23.082758570603644,143.26132268371992,84.55280000000005,81,73,12.15
405,gat,27.0551762603955,9.603034220792011,65.76080000000005,21,0,2.07
406,ekhabi,54.03196636349688,147.2821023331946,46.50080000000007,89,50,5.78
407,sola,-11.210979470704942,169.51577773942972,84.08480000000006,68,42,1.97
408,plettenberg bay,-40.930926644079925,23.311498345799976,56.50880000000008,79,85,8.61
409,kaina,58.95261975502956,23.138768503914974,44.82680000000006,73,100,3.45
410,nome,67.555847298956,-161.86082011644206,32.0,69,90,9.3
411,lodwar,2.992289639182232,36.71068712321676,80.12480000000008,50,6,5.67
412,narsaq,78.64538106955825,-67.57217425080978,23.10080000000007,59,100,3.91
413,halifax,40.56294132989774,-61.08698953537487,69.63080000000001,67,100,8.31
414,portland,-41.47578650707194,140.91090375095547,49.5068,72,100,7.04
415,ambon,-6.931897773684682,128.38699527427752,79.38680000000004,76,1,6.11
416,baneasa,44.085898365543784,27.738741409396624,46.004000000000055,81,0,6.2
417,calbuco,-42.615649295653625,-72.57934735699651,46.4,93,90,1.0
418,pumiao,22.857748890971976,108.63292379618724,78.8,78,75,4.0
419,sao gabriel da cachoeira,-0.24570649513123044,-67.64519226942984,74.3648,90,68,0.46
420,maxixe,-24.524461431203903,35.22187913315912,68.65880000000007,83,0,4.16
421,popondetta,-9.4901717287524,148.8768081525023,86.85679999999999,52,28,2.06
422,praia da vitoria,42.708141034939274,-23.699322904098494,63.20480000000002,66,10,8.46
423,rondonopolis,-17.116811712806836,-55.3806136299406,75.89480000000005,65,1,1.75
424,laguna,-33.560673403489425,-42.396220674016746,62.556799999999996,86,12,8.55
425,kemijarvi,66.43375496099767,27.209952336165088,33.8,95,75,4.1
426,alekseyevsk,58.20382149993884,108.99690989146171,32.58680000000004,80,100,3.28
427,karauzyak,44.18300520072205,60.42293887645246,67.93880000000001,69,0,0.24
428,vila franca do campo,38.62509329390667,-22.03025175215484,68.22680000000005,81,100,7.62
429,avezzano,42.24093920405994,13.345054405800227,55.004000000000055,56,0,14.4
430,pujehun,7.379616971227648,-11.64016544311636,74.56280000000002,94,95,1.51
431,bend,43.26616389519771,-120.56067860714728,55.99400000000007,33,29,1.79
432,algiers,37.329894489624536,2.606924688005222,72.52880000000003,54,19,7.35
433,fujin,46.921572611431856,131.86996428623792,48.58880000000001,82,100,5.55
434,coffeyville,36.861335989790646,-95.67918393005687,55.99400000000007,87,1,2.16
435,bac lieu,7.353565187793919,108.2962523706779,83.56280000000002,73,100,3.68
436,fairbanks,64.09237104863263,-142.56642559957942,17.88080000000001,83,9,1.54
437,samusu,-0.7223097981669468,-163.78456246118316,81.13280000000009,81,8,6.48
438,kolin,50.06466206035515,15.241702008603141,39.992,80,0,1.5
439,poltavka,53.63511725633086,71.31081401478525,53.16080000000005,67,0,2.65
440,greensburg,40.3876474073393,-79.3742784161284,53.6,100,1,0.87
441,haines junction,59.60816917127903,-138.80239417727324,46.4,54,1,2.1
442,saint-georges,7.588284270267877,-45.830589491857495,82.84280000000007,73,31,4.47
443,nouakchott,18.084300986632144,-17.35295225509745,80.8988,78,0,4.66
444,monrovia,2.1478442170617598,-12.703743091408143,76.70480000000002,80,100,7.69
445,queanbeyan,-35.63101746050489,149.59587652516166,62.6,36,75,7.7
446,san-pedro,-0.9172555967143126,-4.480785682406378,76.38080000000001,82,100,4.65
447,shelopugino,51.82806192240744,117.7763115149624,47.004800000000024,61,100,5.3
448,minab,27.5290636922593,57.85860721344176,75.37280000000001,77,0,1.04
449,surgut,60.569951817039254,73.67096082353942,44.44879999999999,85,98,2.47
450,aksay,50.15829531708749,53.034249651337205,40.21880000000006,80,0,3.37
451,agira,37.493951809563825,14.570012866973144,62.6,100,75,1.5
452,biltine,15.850120230717238,20.871904951503723,81.29480000000004,60,70,3.3
453,port moresby,-10.832269326671081,147.2707062800514,76.14680000000001,77,1,9.17
454,bambous virieux,-30.186778726900258,74.58967331256423,57.2648,69,0,7.8
455,bowen,-18.449731960163845,149.65518286407587,74.27480000000008,69,0,1.71
456,caernarfon,52.74262121066357,-4.84172660651754,57.992,82,0,8.7
457,hirado,34.416562224403464,129.26089947730753,68.0,49,75,7.2
458,walvis bay,-24.341528291785167,14.030093448488373,57.58880000000001,85,0,12.88
459,tartagal,-23.565935635688305,-63.10431518423644,71.01680000000007,63,0,2.69
460,svetlyy,50.74441313932624,60.59034092388836,51.10880000000007,32,65,1.93
461,douala,3.6691508801422117,9.670214148673125,77.92880000000004,87,100,3.94
462,wagar,15.886744438626891,36.373093940485234,84.26480000000001,53,0,3.47
463,campoverde,-9.55939998652515,-74.80346369312933,68.20880000000008,99,100,0.54
464,svetlogorsk,67.3045885588156,88.72434014585974,27.582800000000088,94,96,2.53
465,pauini,-7.082954045376553,-67.90891891176364,72.02480000000008,96,59,2.23
466,stokmarknes,72.93853462583664,12.86542889973532,42.18080000000001,81,100,8.21
467,changde,28.525132610750887,111.23367615017213,62.79079999999999,65,100,1.85
468,tateyama,24.6956609113239,143.23415691578816,83.79680000000002,83,40,8.88
469,panalingaan,11.50397292081415,114.22304585154109,84.46280000000003,77,100,7.73
470,qeshm,27.451215317995775,56.443226384001576,80.6,88,20,3.1
471,rute,37.243510844750105,-4.300866142194565,71.00600000000003,77,0,2.1
472,coihaique,-45.991789586065366,-74.1279763626738,39.354800000000026,98,100,1.88
473,lolua,-8.099492889444164,172.60729329101594,83.67080000000003,66,0,0.49
474,beyneu,44.0482021904846,56.54167251602075,58.524800000000084,37,0,2.64
475,kalmunai,7.70208444170845,85.02473941591569,82.41080000000005,68,15,0.79
476,pimenta bueno,-11.933760200733857,-60.98577218643612,74.32880000000003,90,100,1.45
477,constitucion,18.67304998433967,-121.0324605154155,75.85880000000007,79,100,6.91
478,yeniseysk,59.00484337185034,90.2071274248334,40.938800000000015,79,96,3.39
479,porto walter,-9.471319425643927,-72.91533605064657,66.31880000000005,99,100,0.88
480,monte aprazivel,-20.54602968222335,-49.921483908653414,77.0,61,0,6.7
481,mopipi,-21.931505947582366,24.582877113306324,65.50880000000008,17,0,2.13
482,barahona,17.850155766467253,-71.10330680336281,72.20480000000002,78,20,2.33
483,opelousas,30.534910067983645,-91.79603272811592,69.99800000000002,93,1,6.2
484,annau,39.46767451914269,59.943676699215956,65.79680000000002,30,0,1.84
485,soyo,-6.578042935770128,10.721706993415495,75.40880000000007,89,100,5.73
486,ushibuka,32.143623519549976,129.32758778351888,71.10679999999999,76,57,9.14
487,kurumkan,54.6486759616362,110.22859872569853,35.97080000000003,100,100,4.14
488,egvekinot,63.298803638947305,-179.94275564345546,41.4068,87,100,7.38
489,mastic beach,40.321530250047886,-72.60991159762301,69.8,83,75,6.82
490,havoysund,74.98014077262124,24.641560919473022,38.022800000000004,79,0,4.8
491,essex,42.14346744605564,-82.70709435390931,59.0,58,1,2.6
492,oriximina,0.4941099240440252,-56.07724725998459,72.25880000000008,93,100,0.08
493,belyy yar,60.044443381827506,85.60638816993014,40.056799999999996,83,99,3.54
494,miles city,47.82044842799695,-106.17472864806065,57.2,45,1,2.1
495,karratha,-15.113791177711278,115.27347756198327,78.34280000000007,75,67,4.0
496,oktyabrskiy,47.748762363141566,43.48069917156403,48.984800000000064,63,100,7.84
497,gizo,-7.79428254067588,158.13159442410063,83.68880000000001,74,64,4.61
498,honiara,-14.518321368152215,156.64485722694627,76.43480000000007,72,51,6.89
499,sorland,70.1065897522517,8.911006048825953,42.48680000000004,71,100,7.77
500,bhadra,29.016721325762504,74.99614062549159,79.40480000000002,30,0,1.34
501,deputatskiy,68.29988594678198,141.57831992059033,13.29079999999999,89,96,1.67
502,frolovo,49.48801392959717,43.490421388656955,35.00600000000003,92,97,2.68
503,nova ushytsya,48.87423137842703,27.357307285655736,28.004000000000055,93,0,2.7
504,alugan,17.930012749800568,133.1042249636949,83.27480000000008,77,74,8.29
505,siedlce,52.133944782262034,22.251717086377255,33.008,86,3,3.33
506,krasnoarmeysk,53.53117833083948,69.20085008928322,42.8,81,0,2.78
507,braganca,-1.3573105917084547,-46.76919685525374,72.99680000000002,95,51,2.51
508,basoko,0.3849960348310759,23.32164867389315,68.4068,99,100,1.64
509,salinopolis,2.6074229359363983,-45.08904044522092,81.07880000000003,81,66,6.38
510,patos de minas,-18.420829721828937,-46.656423751314264,68.2988,83,100,1.35
511,karamea,-40.027709000460355,170.63208182317965,57.39079999999999,90,66,7.92
512,ulaanbaatar,46.86427537870779,107.4515523909867,49.398799999999994,39,0,7.94
513,trinidad,-14.129958377744842,-65.53534931071627,68.83880000000002,88,97,1.49
514,karamken,60.776485143084756,151.12420709063565,13.704800000000024,71,0,1.31
515,pa daet,19.4226862635291,100.11881947287435,77.0,88,20,1.5
516,borogontsy,62.97823682831023,131.18331301856955,28.59079999999999,77,99,3.58
517,taraza,7.533323541313337,-75.4804157998709,69.14480000000005,97,100,1.14
518,punakha,27.69434291870091,89.89868159905359,35.52080000000003,76,70,3.3
519,dagda,55.77493218382159,27.77287949037924,34.49480000000004,96,97,3.06
520,zhigansk,68.88901590395443,119.60738305251772,19.662800000000026,87,100,6.75
521,coquimbo,-27.12428261423787,-83.6142865780977,59.71280000000003,89,0,7.27
522,cranbrook,48.794958523649086,-115.4746479217793,53.99600000000005,58,90,2.32
523,alghero,40.79437484380037,7.910984005095656,59.0,77,0,2.1
524,vila velha,-31.502296013621653,-22.459332527742845,62.52080000000003,89,100,7.64
525,skovde,58.40136112666994,14.219957357332959,35.99600000000005,87,100,2.1
526,ngunguru,-32.079243042353085,178.69685460180563,63.96080000000005,84,73,9.41
527,carbondale,38.00679919780549,-89.69088897836357,55.4,71,1,1.4
528,grandola,38.263742838994176,-8.560799715517845,66.2,59,0,4.1
529,gari,59.539177433132664,62.64468683833911,44.538800000000016,87,0,4.4
530,nakonde,-9.459622778366935,32.29240650701965,66.98480000000006,60,82,1.55
531,pervomayskoye,45.4986737395549,33.632571594091445,44.610800000000054,62,100,4.36
532,fayaoue,-19.486522046274246,166.59883522574677,73.24879999999999,77,0,7.24
533,manggar,-2.3144453541443966,107.67183590472035,80.05280000000005,77,100,0.57
534,gravatai,-29.958974973488203,-50.78320662052133,66.2,93,0,2.1
535,jiehu,35.698473099066675,118.31903171585685,63.312800000000024,54,0,5.29
536,cooma,-37.416130305873345,149.22256030769626,52.22480000000009,74,97,4.03
537,mogadishu,0.7634445458633081,45.6108834723193,79.47680000000005,85,0,4.9
538,marbella,36.02013688561826,-4.7134447429657484,66.2,93,100,6.2
539,senador jose porfirio,-2.6351380130942914,-52.257290720051685,73.17680000000006,92,100,0.61
540,lalomanu,-14.679869020783102,-171.46371160517282,78.81080000000006,77,33,9.53
541,great yarmouth,53.28452130817618,3.1983776238684527,59.0,82,88,11.8
542,kuandian,40.82608056921438,124.57559911997885,49.75880000000008,36,0,4.88
543,byron bay,-29.203440733796604,159.671953582857,67.57880000000003,79,0,11.44
544,san jeronimo,8.187794821746493,-105.01083206040215,78.10880000000007,86,100,8.24
545,dalinghe,40.88083261969916,121.41655363405442,59.478800000000035,16,0,6.09
546,husavik,73.12850333093931,-14.176753819182352,37.860800000000054,89,100,4.37
547,laibin,24.026426408430098,108.52085316641859,68.60480000000003,89,100,1.34
548,inderborskiy,49.880359110991066,52.142410514101925,40.1648,73,0,3.03
549,kosonsoy,41.283472232143225,71.45269172367264,57.2,71,4,2.1
550,ndele,9.505366325530176,20.715089563539152,70.53080000000001,97,100,0.92
551,cowra,-33.95350047615375,148.4212224838775,54.67280000000001,77,91,7.1
552,whitecourt,54.44709498838728,-115.4015475940086,33.8,80,90,6.2
553,kroya,-12.091735423550745,107.9652205929849,76.81280000000002,83,27,5.28
554,kasongo-lunda,-5.303611987804317,16.675724230748585,67.03880000000001,98,36,0.09
555,pingliang,35.21910650554889,106.96798097883175,50.65880000000008,61,91,4.73
556,cam ranh,11.85965331753249,110.77341898354251,82.41080000000005,81,100,6.35
557,sainte-anne-des-monts,48.77672347742481,-66.12657829098625,43.96280000000003,94,100,3.6
558,pacific grove,27.643874654477926,-132.567566492472,69.10880000000007,72,19,3.82
559,avera,-25.923022611950714,-152.12384936433432,65.23880000000001,61,81,4.79
560,iranshahr,28.151164195399346,59.547514916531355,72.2228,67,0,2.19
561,grindavik,54.617976946673366,-25.07827342211661,51.162800000000026,77,100,17.0
562,picton,43.561185979841696,-77.0447622236652,57.992,93,1,6.15
563,sao joao do piaui,-7.86304981740426,-42.45362850208204,78.72080000000003,38,0,2.26
564,paralimni,34.448089735300385,34.15173103084484,69.8,83,20,2.6
565,pa sang,17.991529872530748,98.16273547986259,85.03880000000001,49,0,0.88
566,rawson,-51.86621711131436,-56.28455815568685,39.1568,63,90,12.86
567,pampierstad,-27.697653748888236,24.76512805531968,50.622800000000005,39,0,3.49
568,colorado,-23.029564428793876,-51.993428611247595,66.2,82,0,2.6
569,ishim,56.37198843947971,69.39874157439604,47.50880000000008,78,0,2.26
570,ambunti,-4.540153817958853,141.35742739624402,93.73280000000008,43,32,1.19
571,gweta,-19.669974281401053,24.44204515567725,65.95880000000008,18,32,2.74
572,nishihara,19.762582780143546,137.194489328281,84.98480000000006,81,96,10.45
573,strelka,58.606047311106266,93.49864040670326,37.21280000000003,81,100,2.52
574,makakilo city,9.121024983288393,-163.6964150356084,84.40880000000007,66,0,2.27
575,mango,10.470343611502955,0.8083414315066477,75.67880000000004,92,100,3.22
576,zilair,51.91005860233258,57.00355991854707,45.87080000000003,95,87,2.28
577,gualan,15.200046000255156,-89.30366136692521,71.99600000000005,1,100,1.23
578,sindgi,16.87004526526698,76.28751045542856,77.62280000000001,74,70,2.54
579,naze,22.151132531270576,137.49332289301282,84.33680000000004,83,2,10.33
580,san lorenzo,1.3827186117637922,-78.70662961352348,77.28080000000001,85,100,5.8
581,havre-saint-pierre,57.23868296662258,-63.10741195134348,37.05080000000007,87,100,9.61
582,silyanah,36.00575004687887,9.402198017253227,58.20080000000007,83,99,10.73
583,petersburg,37.120963938867504,-77.45616416621154,73.4,82,75,1.34
584,bonavista,54.387633413272624,-49.5155347066584,47.76080000000005,84,100,9.6
585,cayenne,7.329518413461997,-50.421064428984124,82.24879999999999,77,0,5.38
586,alta floresta,-9.347832152023528,-58.21055026935689,71.91680000000008,95,66,1.17
587,maihar,24.206027796494155,80.55779552493914,77.62280000000001,56,0,0.66
588,vanavara,62.51266614769952,102.11019782542394,24.684800000000063,64,32,3.5
589,atasu,46.57348182207559,70.55000588481818,61.38680000000004,30,0,1.34
590,preobrazheniye,43.17273279809402,133.96005694070033,34.27880000000003,97,100,3.83
591,lebrija,36.90209469934533,-6.085554127093133,73.00400000000005,59,91,2.1
592,guia de isora,27.786661221737745,-17.492386123699504,71.6,83,75,5.1
593,port lincoln,-38.98938941655205,135.54784752047408,50.29879999999999,63,64,3.53
594,porto murtinho,-21.7578981694829,-57.79275262899152,71.93480000000007,72,100,1.43
595,ust-koksa,49.06214019507459,86.10648173773183,47.61680000000008,28,8,1.48
596,zhezkazgan,47.30381260702342,66.57701760910541,56.148799999999994,20,0,2.14
597,kuala terengganu,6.561887807055072,105.20191733663552,84.03080000000001,64,100,1.76
598,fukue,30.940160535755126,126.39259253009698,71.25080000000007,77,100,7.23
599,margate,-35.74419054028368,34.9345033185692,65.88680000000004,91,9,7.54
600,lakes entrance,-39.18391032077734,150.97915622334108,55.69879999999999,79,100,9.4
601,sal rei,15.572973900199756,-20.779066568373736,77.1908,81,97,5.25
602,nha trang,12.034239500602467,113.03621584644458,84.35480000000003,77,100,7.48
603,codrington,23.745697635538264,-55.645582018253506,80.82680000000006,73,22,3.17
604,saint-joseph,-25.8033338044429,55.49067958316425,69.19879999999999,69,100,7.57
605,sechura,-6.198953599257479,-82.06516799283305,62.52080000000003,88,96,7.16
606,terney,44.23358377112271,137.5514888799089,55.55480000000002,75,67,3.92
607,vitim,59.15381306048522,112.35754117192431,30.210800000000052,84,98,4.29
608,vancouver,49.177427044073596,-123.36366998646488,57.992,87,75,11.8
609,hami,42.96404997281837,92.70326421490734,69.81080000000006,15,99,6.37
610,mareeba,-14.964589727827658,142.41666668433044,98.17880000000004,16,10,5.07
611,kloulklubed,4.916082747617452,134.63763618363305,83.8148,77,100,7.4
612,miraflores,0.9475378580561085,-72.3688350861087,73.10480000000003,91,95,0.45
613,kuche,37.21872332968191,83.17794156499565,65.9408,31,100,5.02
614,teguise,30.555691767210988,-12.113694477368483,70.27880000000003,88,0,7.04
